$GPGGA,194123.922,5650.589,N,03547.546,E,1,12,1.0,0.0,M,0.0,M,,*6B
$GPGSA,A,3,01,02,03,04,05,06,07,08,09,10,11,12,1.0,1.0,1.0*30
$GPRMC,194123.922,A,5650.589,N,03547.546,E,477.3,355.6,200120,000.0,W*7C
$GPGGA,194124.922,5650.721,N,03547.535,E,1,12,1.0,0.0,M,0.0,M,,*68
$GPGSA,A,3,01,02,03,04,05,06,07,08,09,10,11,12,1.0,1.0,1.0*30
$GPRMC,194124.922,A,5650.721,N,03547.535,E,378.8,346.2,200120,000.0,W*7A
$GPGGA,194125.922,5650.826,N,03547.510,E,1,12,1.0,0.0,M,0.0,M,,*66
$GPGSA,A,3,01,02,03,04,05,06,07,08,09,10,11,12,1.0,1.0,1.0*30
$GPRMC,194125.922,A,5650.826,N,03547.510,E,330.3,341.2,200120,000.0,W*74
$GPGGA,194126.922,5650.916,N,03547.479,E,1,12,1.0,0.0,M,0.0,M,,*69
$GPGSA,A,3,01,02,03,04,05,06,07,08,09,10,11,12,1.0,1.0,1.0*30
$GPRMC,194126.922,A,5650.916,N,03547.479,E,376.5,335.5,200120,000.0,W*7B
$GPGGA,194127.922,5651.017,N,03547.432,E,1,12,1.0,0.0,M,0.0,M,,*6E
$GPGSA,A,3,01,02,03,04,05,06,07,08,09,10,11,12,1.0,1.0,1.0*30
$GPRMC,194127.922,A,5651.017,N,03547.432,E,334.8,000.0,200120,000.0,W*77
$GPGGA,194128.922,5651.110,N,03547.432,E,1,12,1.0,0.0,M,0.0,M,,*67
$GPGSA,A,3,01,02,03,04,05,06,07,08,09,10,11,12,1.0,1.0,1.0*30
$GPRMC,194128.922,A,5651.110,N,03547.432,E,392.0,341.5,200120,000.0,W*79
$GPGGA,194129.922,5651.217,N,03547.396,E,1,12,1.0,0.0,M,0.0,M,,*6B
$GPGSA,A,3,01,02,03,04,05,06,07,08,09,10,11,12,1.0,1.0,1.0*30
$GPRMC,194129.922,A,5651.217,N,03547.396,E,350.2,342.2,200120,000.0,W*7D
$GPGGA,194130.922,5651.313,N,03547.365,E,1,12,1.0,0.0,M,0.0,M,,*6A
$GPGSA,A,3,01,02,03,04,05,06,07,08,09,10,11,12,1.0,1.0,1.0*30
$GPRMC,194130.922,A,5651.313,N,03547.365,E,400.2,344.4,200120,000.0,W*7E
$GPGGA,194131.922,5651.423,N,03547.334,E,1,12,1.0,0.0,M,0.0,M,,*6B
$GPGSA,A,3,01,02,03,04,05,06,07,08,09,10,11,12,1.0,1.0,1.0*30
$GPRMC,194131.922,A,5651.423,N,03547.334,E,479.4,349.0,200120,000.0,W*7E
$GPGGA,194132.922,5651.555,N,03547.309,E,1,12,1.0,0.0,M,0.0,M,,*66
$GPGSA,A,3,01,02,03,04,05,06,07,08,09,10,11,12,1.0,1.0,1.0*30
$GPRMC,194132.922,A,5651.555,N,03547.309,E,579.5,352.7,200120,000.0,W*7E
$GPGGA,194133.922,5651.715,N,03547.288,E,1,12,1.0,0.0,M,0.0,M,,*69
$GPGSA,A,3,01,02,03,04,05,06,07,08,09,10,11,12,1.0,1.0,1.0*30
$GPRMC,194133.922,A,5651.715,N,03547.288,E,375.4,002.8,200120,000.0,W*73
$GPGGA,194134.922,5651.820,N,03547.293,E,1,12,1.0,0.0,M,0.0,M,,*6D
$GPGSA,A,3,01,02,03,04,05,06,07,08,09,10,11,12,1.0,1.0,1.0*30
$GPRMC,194134.922,A,5651.820,N,03547.293,E,354.2,321.5,200120,000.0,W*7D
$GPGGA,194135.922,5651.910,N,03547.221,E,1,12,1.0,0.0,M,0.0,M,,*67
$GPGSA,A,3,01,02,03,04,05,06,07,08,09,10,11,12,1.0,1.0,1.0*30
$GPRMC,194135.922,A,5651.910,N,03547.221,E,468.2,009.0,200120,000.0,W*73
$GPGGA,194136.922,5652.039,N,03547.242,E,1,12,1.0,0.0,M,0.0,M,,*60
$GPGSA,A,3,01,02,03,04,05,06,07,08,09,10,11,12,1.0,1.0,1.0*30
$GPRMC,194136.922,A,5652.039,N,03547.242,E,351.5,310.0,200120,000.0,W*75
$GPGGA,194137.922,5652.121,N,03547.144,E,1,12,1.0,0.0,M,0.0,M,,*6C
$GPGSA,A,3,01,02,03,04,05,06,07,08,09,10,11,12,1.0,1.0,1.0*30
$GPRMC,194137.922,A,5652.121,N,03547.144,E,578.0,001.8,200120,000.0,W*7A
$GPGGA,194138.922,5652.281,N,03547.149,E,1,12,1.0,0.0,M,0.0,M,,*67
$GPGSA,A,3,01,02,03,04,05,06,07,08,09,10,11,12,1.0,1.0,1.0*30
$GPRMC,194138.922,A,5652.281,N,03547.149,E,430.2,345.4,200120,000.0,W*71
$GPGGA,194139.922,5652.399,N,03547.118,E,1,12,1.0,0.0,M,0.0,M,,*6A
$GPGSA,A,3,01,02,03,04,05,06,07,08,09,10,11,12,1.0,1.0,1.0*30
$GPRMC,194139.922,A,5652.399,N,03547.118,E,385.4,002.7,200120,000.0,W*70
$GPGGA,194140.922,5652.506,N,03547.123,E,1,12,1.0,0.0,M,0.0,M,,*6C
$GPGSA,A,3,01,02,03,04,05,06,07,08,09,10,11,12,1.0,1.0,1.0*30
$GPRMC,194140.922,A,5652.506,N,03547.123,E,467.3,338.0,200120,000.0,W*77
$GPGGA,194141.922,5652.633,N,03547.072,E,1,12,1.0,0.0,M,0.0,M,,*6D
$GPGSA,A,3,01,02,03,04,05,06,07,08,09,10,11,12,1.0,1.0,1.0*30
$GPRMC,194141.922,A,5652.633,N,03547.072,E,503.3,343.4,200120,000.0,W*7D
$GPGGA,194142.922,5652.771,N,03547.031,E,1,12,1.0,0.0,M,0.0,M,,*6E
$GPGSA,A,3,01,02,03,04,05,06,07,08,09,10,11,12,1.0,1.0,1.0*30
$GPRMC,194142.922,A,5652.771,N,03547.031,E,376.1,335.5,200120,000.0,W*78
$GPGGA,194143.922,5652.872,N,03546.984,E,1,12,1.0,0.0,M,0.0,M,,*65
$GPGSA,A,3,01,02,03,04,05,06,07,08,09,10,11,12,1.0,1.0,1.0*30
$GPRMC,194143.922,A,5652.872,N,03546.984,E,298.1,280.0,200120,000.0,W*78
$GPGGA,194144.922,5652.898,N,03546.840,E,1,12,1.0,0.0,M,0.0,M,,*6F
$GPGSA,A,3,01,02,03,04,05,06,07,08,09,10,11,12,1.0,1.0,1.0*30
$GPRMC,194144.922,A,5652.898,N,03546.840,E,294.6,352.8,200120,000.0,W*7F
$GPGGA,194145.922,5652.979,N,03546.830,E,1,12,1.0,0.0,M,0.0,M,,*67
$GPGSA,A,3,01,02,03,04,05,06,07,08,09,10,11,12,1.0,1.0,1.0*30
$GPRMC,194145.922,A,5652.979,N,03546.830,E,454.3,066.3,200120,000.0,W*77
$GPGGA,194146.922,5653.058,N,03547.010,E,1,12,1.0,0.0,M,0.0,M,,*64
$GPGSA,A,3,01,02,03,04,05,06,07,08,09,10,11,12,1.0,1.0,1.0*30
$GPRMC,194146.922,A,5653.058,N,03547.010,E,580.6,099.1,200120,000.0,W*7B
$GPGGA,194147.922,5653.013,N,03547.293,E,1,12,1.0,0.0,M,0.0,M,,*63
$GPGSA,A,3,01,02,03,04,05,06,07,08,09,10,11,12,1.0,1.0,1.0*30
$GPRMC,194147.922,A,5653.013,N,03547.293,E,417.9,097.8,200120,000.0,W*7B
$GPGGA,194148.922,5652.985,N,03547.499,E,1,12,1.0,0.0,M,0.0,M,,*67
$GPGSA,A,3,01,02,03,04,05,06,07,08,09,10,11,12,1.0,1.0,1.0*30
$GPRMC,194148.922,A,5652.985,N,03547.499,E,336.9,098.8,200120,000.0,W*74
$GPGGA,194149.922,5652.959,N,03547.664,E,1,12,1.0,0.0,M,0.0,M,,*67
$GPGSA,A,3,01,02,03,04,05,06,07,08,09,10,11,12,1.0,1.0,1.0*30
$GPRMC,194149.922,A,5652.959,N,03547.664,E,433.0,101.6,200120,000.0,W*70
$GPGGA,194150.922,5652.917,N,03547.870,E,1,12,1.0,0.0,M,0.0,M,,*6E
$GPGSA,A,3,01,02,03,04,05,06,07,08,09,10,11,12,1.0,1.0,1.0*30
$GPRMC,194150.922,A,5652.917,N,03547.870,E,501.5,097.8,200120,000.0,W*7C
$GPGGA,194151.922,5652.883,N,03548.117,E,1,12,1.0,0.0,M,0.0,M,,*64
$GPGSA,A,3,01,02,03,04,05,06,07,08,09,10,11,12,1.0,1.0,1.0*30
$GPRMC,194151.922,A,5652.883,N,03548.117,E,538.9,099.2,200120,000.0,W*74
$GPGGA,194152.922,5652.841,N,03548.380,E,1,12,1.0,0.0,M,0.0,M,,*65
$GPGSA,A,3,01,02,03,04,05,06,07,08,09,10,11,12,1.0,1.0,1.0*30
$GPRMC,194152.922,A,5652.841,N,03548.380,E,538.9,099.2,200120,000.0,W*75
